{"type":"FeatureCollection","features":[{"type":"Feature","properties":{"Name":"Köln Porz","Address":"Bartholomäusstraße 30, 51145 Köln"},"geometry":{"type":"Point","coordinates":[7.090628,50.883954]}},{"type":"Feature","properties":{"Name":"Arnsberg","Address":"Bartholomäusstraße 30, 51145 Köln"},"geometry":{"type":"Point","coordinates":[8.038678,51.421298]}},{"type":"Feature","properties":{"Name":"Detmold","Address":"Bartholomäusstraße 30, 51145 Köln"},"geometry":{"type":"Point","coordinates":[8.840916,51.960995]}},{"type":"Feature","properties":{"Name":"Dortmund","Address":"Bartholomäusstraße 30, 51145 Köln"},"geometry":{"type":"Point","coordinates":[7.525666,51.529034]}},{"type":"Feature","properties":{"Name":"Wuppertal","Address":"Bartholomäusstraße 30, 51145 Köln"},"geometry":{"type":"Point","coordinates":[7.215352,51.233258]}},{"type":"Feature","properties":{"Name":"Übach-Palenberg","Address":"Bartholomäusstraße 30, 51145 Köln"},"geometry":{"type":"Point","coordinates":[6.139102,50.914934]}},{"type":"Feature","properties":{"Name":"Solingen","Address":"Bartholomäusstraße 30, 51145 Köln"},"geometry":{"type":"Point","coordinates":[7.084389,51.163201]}},{"type":"Feature","properties":{"Name":"Siegen","Address":"Bartholomäusstraße 30, 51145 Köln"},"geometry":{"type":"Point","coordinates":[8.002182,50.883987]}},{"type":"Feature","properties":{"Name":"Oberhausen","Address":"Bartholomäusstraße 30, 51145 Köln"},"geometry":{"type":"Point","coordinates":[6.868617,51.481345]}},{"type":"Feature","properties":{"Name":"Münster","Address":"Bartholomäusstraße 30, 51145 Köln"},"geometry":{"type":"Point","coordinates":[7.634589,51.995723]}},{"type":"Feature","properties":{"Name":"Jülich","Address":"Bartholomäusstraße 30, 51145 Köln"},"geometry":{"type":"Point","coordinates":[6.324503,50.92396]}},{"type":"Feature","properties":{"Name":"Essen","Address":"Bartholomäusstraße 30, 51145 Köln"},"geometry":{"type":"Point","coordinates":[7.08147,51.481795]}}]}